[
  {
    "id": 1,
    "title": "ՊԱՆԴՈԿ ԵՐԵՎԱՆ",
    "coordinates": {
      "lat": 40.179004,
      "lng": 44.510047
    },
    "rating": 4.7,
    "description": "Համով Բաներ",
    "address": "Ամիրյան 5"
  },
  {
    "id": 2,
    "title": "ՊԱՆԴՈԿ ԵՐԵՎԱՆ 1",
    "coordinates": {
      "lat": 40.18,
      "lng": 44.76047
    },
    "rating": 4,
    "description": "Համով Բաներ",
    "address": "Ամիրյան 9"
  },
  {
    "id": 3,
    "title": "ՊԱՆԴՈԿ ԵՐԵՎԱՆ 2",
    "coordinates": {
      "lat": 40.55,
      "lng": 44.25047
    },
    "rating": 4,
    "description": "Համով Բաներ",
    "address": "Ամիրյան 9"
  },
  {
    "id": 4,
    "title": "Բալենի 188",
    "coordinates": {
      "lat": 40.598,
      "lng": 44.150047
    },
    "rating": 4,
    "description": "Համով Բաներ",
    "address": "Ամիրյան 9"
  },
  {
    "id": 5,
    "title": "ԵՐԵՎԱՆ 15",
    "coordinates": {
      "lat": 40.18,
      "lng": 44.190047
    },
    "rating": 2,
    "description": "Համով Բաներ",
    "address": "Ամիրյան 9"
  },

  {
    "id": 6,
    "title": "Էլբա",
    "coordinates": {
      "lat":  40.20079643910851,
      "lng": 44.550003452467074
    },
    "rating": 4,
    "description": "Համով Բաներ",
    "address": "Մյասնիկյան"
  }
]
